,City,Lat,Lng,Max Temp,Humidity,Cloudiness,Wind Speed,Country,Date
0,Whyalla,-33.03,137.58,62.6,72,90,14.99,AU,1604112806
1,Poum,-20.23,164.02,79.02,76,99,19.89,NC,1604112806
2,Provideniya,64.38,-173.3,21.97,84,20,7.25,RU,1604112806
3,Baruun-Urt,46.68,113.28,36.99,70,29,19.1,MN,1604112806
4,Skjervøy,70.03,20.97,32.27,87,0,18.54,NO,1604112806
5,Kaitangata,-46.28,169.85,57.0,84,100,14.0,NZ,1604112338
6,Boende,-0.22,20.87,67.41,96,70,1.19,CD,1604112807
7,Farah,32.5,62.5,45.81,42,0,2.51,AF,1604112807
8,Nemuro,43.32,145.57,51.8,50,20,12.75,JP,1604112807
9,Busselton,-33.65,115.33,69.21,66,100,9.51,AU,1604112351
10,Saskylakh,71.92,114.08,-2.2,83,3,6.17,RU,1604112342
11,Okhotsk,59.38,143.3,21.99,85,100,11.88,RU,1604112807
12,Ürümqi,43.8,87.6,42.8,52,0,4.47,CN,1604112807
13,Punta Arenas,-53.15,-70.92,48.2,76,75,6.93,CL,1604112071
14,Yar-Sale,66.83,70.83,34.29,97,100,15.37,RU,1604112807
15,Beringovskiy,63.05,179.32,23.31,88,80,13.6,RU,1604112807
16,Kruisfontein,-34.0,24.73,48.99,93,0,2.75,ZA,1604112674
17,Triggiano,41.07,16.93,54.0,93,0,4.7,IT,1604112807
18,Tuktoyaktuk,69.45,-133.04,5.0,84,75,11.41,CA,1604112591
19,Albany,42.6,-73.97,33.01,89,72,3.15,US,1604112743
20,Atuona,-9.8,-139.03,77.83,75,61,11.77,PF,1604112808
21,Palora,-1.7,-77.93,68.14,87,100,2.62,EC,1604112808
22,Vaini,-21.2,-175.2,78.8,74,40,9.17,TO,1604112075
23,Port Blair,11.67,92.75,83.28,76,73,9.91,IN,1604112676
24,Hermanus,-34.42,19.23,45.0,93,0,12.28,ZA,1604112357
25,Clarence Town,-32.58,151.78,82.0,34,12,19.46,AU,1604112808
26,Moranbah,-22.0,148.05,93.58,27,0,18.05,AU,1604112808
27,Mēga,4.05,38.3,58.28,100,90,10.96,ET,1604112808
28,Esperance,-33.87,121.9,82.4,24,0,21.92,AU,1604112632
29,Yur’yev-Pol’skiy,56.5,39.68,40.39,85,98,1.99,RU,1604112808
30,Oruzgan,32.83,66.0,42.55,38,0,4.68,AF,1604112808
31,Bagotville,-28.98,153.42,78.8,69,40,9.17,AU,1604112808
32,Qaanaaq,77.48,-69.36,14.29,91,96,5.86,GL,1604112339
33,Pisco,-13.7,-76.22,64.4,82,90,2.24,PE,1604112378
34,Rikitea,-23.12,-134.97,76.15,63,0,0.98,PF,1604112348
35,Gilgit,35.92,74.31,52.5,31,0,3.27,PK,1604112809
36,Atasū,48.68,71.64,33.78,82,0,4.54,KZ,1604112809
37,Ilhabela,-23.78,-45.36,67.41,89,100,3.31,BR,1604112809
38,Eqbālīyeh,35.3,51.54,57.2,42,0,9.17,IR,1604112809
39,Butaritari,3.07,172.79,82.58,76,63,19.42,KI,1604112809
40,Saint-François,46.42,3.91,39.2,100,90,2.24,FR,1604112810
41,Puerto Ayora,-0.74,-90.35,69.01,93,84,5.99,EC,1604112365
42,Yellowknife,62.46,-114.35,14.0,85,75,9.17,CA,1604112358
43,Port Alfred,-33.59,26.89,60.01,65,89,3.69,ZA,1604112354
44,Faanui,-16.48,-151.75,78.8,77,6,16.35,PF,1604112381
45,Campina Verde,-19.54,-49.49,69.73,84,34,11.05,BR,1604112785
46,Ushuaia,-54.8,-68.3,48.2,76,75,16.11,AR,1604112061
47,Saint-Philippe,-21.36,55.77,68.0,72,90,9.17,RE,1604112367
48,Gorontalo,0.54,123.06,87.04,63,47,9.57,ID,1604112811
49,Skellefteå,64.75,20.95,23.0,92,0,3.36,SE,1604112811
50,Jamestown,42.1,-79.24,36.0,86,90,9.17,US,1604112343
51,Santa Maria,-29.68,-53.81,60.8,77,40,10.29,BR,1604112851
52,Kapaa,22.08,-159.32,80.6,69,20,5.82,US,1604112072
53,Bredasdorp,-34.53,20.04,48.2,81,22,3.36,ZA,1604112363
54,Hobart,-42.88,147.33,72.0,52,20,11.41,AU,1604112569
55,Imbituba,-28.24,-48.67,62.6,88,40,9.17,BR,1604112777
56,Rantauprapat,2.1,99.83,88.56,59,99,0.25,ID,1604112852
57,Chokurdakh,70.63,147.92,10.09,96,100,7.63,RU,1604112359
58,Manta,-0.95,-80.73,73.4,83,40,5.82,EC,1604112853
59,Fareydūnshahr,32.94,50.12,34.83,76,0,3.09,IR,1604112853
60,Port Lincoln,-34.73,135.87,60.96,69,55,13.73,AU,1604112853
61,Warud,21.47,78.27,76.05,42,58,4.16,IN,1604112853
62,Kavieng,-2.57,150.8,83.53,72,100,5.97,PG,1604112350
63,Marsh Harbour,26.54,-77.06,79.84,85,2,12.8,BS,1604112853
64,Bluff,-46.6,168.33,53.01,91,100,14.0,NZ,1604112853
65,Binga,-17.62,27.34,73.45,45,0,1.79,ZW,1604112853
66,Tasiilaq,65.61,-37.64,33.8,80,100,56.37,GL,1604112347
67,Miandrivazo,-19.52,45.47,77.85,41,0,5.48,MG,1604112854
68,Dikson,73.51,80.55,14.59,96,97,27.04,RU,1604112854
69,Mount Gambier,-37.83,140.77,55.4,76,90,16.11,AU,1604112666
70,Vao,-22.67,167.48,74.44,87,46,14.2,NC,1604112854
71,Arrondissement de Nevers,46.92,3.33,46.4,93,0,4.7,FR,1604112855
72,Castro,-24.79,-50.01,51.76,93,100,10.0,BR,1604112074
73,Torbay,47.67,-52.73,34.0,64,90,11.41,CA,1604112855
74,Upernavik,72.79,-56.15,19.56,96,98,3.53,GL,1604112596
75,Khatanga,71.97,102.5,-10.44,85,0,5.91,RU,1604112371
76,Mataura,-46.19,168.86,53.01,91,100,13.0,NZ,1604112364
77,Karratha,-20.74,116.85,87.31,43,0,12.3,AU,1604112855
78,Morgan City,29.7,-91.21,55.4,93,1,5.91,US,1604112856
79,Flin Flon,54.77,-101.86,21.16,97,100,17.16,CA,1604112659
80,Nikolskoye,59.7,30.79,45.0,93,90,6.71,RU,1604112349
81,Saldanha,-33.01,17.94,50.0,76,0,9.17,ZA,1604112856
82,Primo Tapia,32.22,-116.92,66.0,82,1,1.9,MX,1604112856
83,Narsaq,60.92,-46.05,23.0,79,90,3.36,GL,1604112380
84,Saint George,37.1,-113.58,64.4,18,1,6.93,US,1604112304
85,Dingle,11.0,122.67,84.85,76,100,12.37,PH,1604112378
86,Port Elizabeth,-33.92,25.57,53.6,87,20,2.24,ZA,1604112354
87,Nuuk,64.18,-51.72,21.2,85,61,9.17,GL,1604112856
88,Tandil,-37.32,-59.13,50.0,72,0,1.99,AR,1604112856
89,San Isidro,-12.12,-77.05,64.4,77,90,12.75,PE,1604112856
90,Thompson,55.74,-97.86,17.6,78,90,9.17,CA,1604112856
91,George Town,5.41,100.34,86.0,74,20,5.82,MY,1604112283
92,Beisfjord,68.38,17.6,35.6,51,30,14.99,NO,1604112856
93,Grand Gaube,-20.01,57.66,69.01,54,0,7.0,MU,1604112857
94,Choix,26.71,-108.32,73.45,38,99,2.04,MX,1604112857
95,Codrington,-38.27,141.97,57.0,76,96,12.97,AU,1604112857
96,Lac du Bonnet,50.25,-96.06,37.99,80,100,19.46,CA,1604112857
97,Mahébourg,-20.41,57.7,69.01,54,0,7.0,MU,1604112857
98,Mar del Plata,-38.0,-57.56,54.0,81,0,6.93,AR,1604112300
99,Pevek,69.7,170.31,19.99,97,100,7.4,RU,1604112351
100,East London,-33.02,27.91,62.37,68,100,1.63,ZA,1604112655
101,Airai,-8.93,125.41,80.38,39,0,4.0,TL,1604112897
102,Arrondissement de Mont-de-Marsan,44.0,-0.67,51.01,93,90,4.16,FR,1604112897
103,Tiksi,71.69,128.87,7.32,95,100,3.96,RU,1604112358
104,Norman Wells,65.28,-126.83,12.2,92,75,5.82,CA,1604112898
105,Hasaki,35.73,140.83,66.0,48,20,16.11,JP,1604112898
106,Cape Town,-33.93,18.42,57.0,62,0,18.34,ZA,1604112143
107,Lüderitz,-26.65,15.16,58.64,61,100,25.68,NA,1604112898
108,Pangnirtung,66.15,-65.71,10.42,79,88,3.91,CA,1604112343
109,Guaratinga,-16.57,-39.57,77.0,83,0,8.05,BR,1604112898
110,Mangan,27.52,88.53,82.49,16,99,0.94,IN,1604112898
111,Vestmannaeyjar,63.44,-20.27,46.58,78,63,23.38,IS,1604112898
112,Tuatapere,-46.13,167.68,53.01,91,100,14.0,NZ,1604112898
113,Fort Smith,35.39,-94.4,50.0,81,1,5.82,US,1604112898
114,Broken Hill,-31.95,141.43,62.6,67,90,16.11,AU,1604112898
115,Yulara,-25.24,130.99,77.0,15,1,11.41,AU,1604112382
116,Avarua,-21.21,-159.78,75.2,78,91,14.99,CK,1604112345
117,Vanavara,60.34,102.28,9.91,94,91,4.92,RU,1604112899
118,Kupang,-10.17,123.58,90.84,50,30,7.27,ID,1604112347
119,Mount Isa,-20.73,139.5,86.0,13,0,6.93,AU,1604112899
120,Laas,46.62,10.7,41.0,100,8,1.12,IT,1604112899
121,Abu Samrah,35.3,37.18,59.9,68,97,3.09,SY,1604112899
122,Tías,28.96,-13.64,73.4,73,0,12.75,ES,1604112899
123,Vila,42.03,-8.16,54.0,94,31,1.99,PT,1604112900
124,Olafsvik,64.89,-23.71,39.15,86,82,6.98,IS,1604112348
125,Hilo,19.73,-155.09,82.4,69,90,5.82,US,1604112727
126,Seoul,37.57,126.98,60.8,54,1,4.7,KR,1604112790
127,Shache,38.42,77.24,47.17,50,0,5.91,CN,1604112863
128,Santa Rosalía,27.32,-112.28,67.28,56,94,2.75,MX,1604112901
129,Bulungu,-4.55,18.6,69.04,98,52,1.66,CD,1604112901
130,Çayeli,41.09,40.73,68.2,55,100,3.06,TR,1604112901
131,Nicolás Bravo,18.45,-88.92,72.52,98,95,4.97,MX,1604112901
132,Masuri,35.85,128.15,57.2,58,40,1.12,KR,1604112901
133,Matara,5.95,80.54,82.96,71,92,7.83,LK,1604112816
134,Severo-Kuril'sk,50.68,156.12,40.37,92,100,39.26,RU,1604112363
135,Teknāf,20.86,92.31,82.36,76,6,4.74,BD,1604112901
136,Arraial do Cabo,-22.97,-42.03,71.29,81,100,26.82,BR,1604112609
137,Chui,-33.7,-53.46,53.35,87,99,5.73,UY,1604112667
138,Ulaanbaatar,47.91,106.88,23.0,67,40,2.24,MN,1604112605
139,College,64.86,-147.8,12.2,78,90,5.82,US,1604112902
140,Buluang,13.31,123.34,85.57,70,100,9.6,PH,1604112902
141,Kitgum,3.28,32.89,65.55,94,78,2.48,UG,1604112902
142,Vostok,46.49,135.88,38.8,84,99,3.58,RU,1604112902
143,Ribeira Grande,38.52,-28.7,68.99,93,100,18.63,PT,1604112902
144,Bambanglipuro,-7.95,110.28,86.07,63,42,5.06,ID,1604112902
145,Hithadhoo,-0.6,73.08,83.79,73,100,9.89,MV,1604112068
146,Shuyskoye,59.37,41.03,39.25,91,100,4.36,RU,1604112672
147,Aktas,49.78,72.96,14.0,92,0,4.47,KZ,1604112903
148,Andenes,69.31,16.12,37.4,69,73,20.8,NO,1604112903
149,Cortez,37.35,-108.59,39.99,55,1,8.05,US,1604112903
150,Egvekinot,66.32,-179.17,13.26,84,51,8.63,RU,1604112696
151,Oranjemund,-28.55,16.43,55.62,84,0,15.95,NA,1604112943
152,Lugovoy,42.95,72.76,42.12,56,0,3.96,KZ,1604112943
153,Kudahuvadhoo,2.67,72.89,82.76,72,100,8.32,MV,1604112943
154,Kiama,-34.68,150.87,64.0,91,55,1.01,AU,1604112943
155,Lorengau,-2.02,147.27,84.27,70,92,1.3,PG,1604112937
156,Sisimiut,66.94,-53.67,20.08,91,92,7.16,GL,1604112943
157,New Norfolk,-42.78,147.06,72.0,36,11,3.0,AU,1604112938
158,Khāsh,28.22,61.22,47.23,32,0,1.77,IR,1604112943
159,Walvis Bay,-22.96,14.51,54.0,87,90,3.36,NA,1604112943
160,Hinton,53.4,-117.59,42.8,56,30,5.82,CA,1604112944
161,Iskateley,67.68,53.15,32.43,95,18,13.87,RU,1604112944
162,Taicheng,38.73,113.23,49.1,38,0,10.51,CN,1604112944
163,Ponta do Sol,32.67,-17.1,66.2,72,20,12.75,PT,1604112944
164,Acapulco de Juárez,16.86,-99.89,80.6,94,75,4.7,MX,1604112944
165,Konde,-4.95,39.75,75.63,87,62,7.65,TZ,1604112944
166,Magistral'nyy,56.17,107.45,25.29,88,100,3.22,RU,1604112944
167,La Ronge,55.1,-105.28,23.0,85,100,20.8,CA,1604112944
168,Chapais,49.78,-74.85,12.2,92,1,5.82,CA,1604112944
169,Warri,5.52,5.75,75.42,96,36,2.28,NG,1604112944
170,Umm Kaddadah,13.6,26.69,79.03,23,0,7.16,SD,1604112944
171,Tromsø,69.65,18.96,30.2,63,0,27.51,NO,1604112944
172,Canutama,-6.53,-64.38,74.03,93,90,2.53,BR,1604112944
173,Rio Claro,-22.41,-47.56,63.81,74,99,13.82,BR,1604112944
174,Dzilam González,21.28,-88.93,74.59,88,69,6.55,MX,1604112945
175,Guerrero Negro,27.98,-114.06,68.09,53,18,10.09,MX,1604112370
176,Lobatse,-25.22,25.67,69.8,32,76,8.05,BW,1604112945
177,Satānā,20.58,74.2,75.63,43,0,3.24,IN,1604112945
178,Alice Springs,-23.7,133.88,77.0,17,0,6.93,AU,1604112923
179,Klyuchi,52.27,79.17,34.72,94,100,6.26,RU,1604112945
180,Kloulklubed,7.04,134.26,84.2,74,75,11.41,PW,1604112945
181,Mehamn,71.04,27.85,30.83,94,37,9.44,NO,1604112946
182,Barrow,71.29,-156.79,8.6,84,1,10.29,US,1604112292
183,Clyde River,70.47,-68.59,14.0,85,40,8.05,CA,1604112946
184,Nabire,-3.37,135.48,87.21,61,45,5.1,ID,1604112906
185,Mvangué,2.97,11.52,66.72,99,95,2.06,CM,1604112946
186,Saint-Augustin,51.23,-58.65,26.69,85,0,10.27,CA,1604112947
187,Verkhnetulomskiy,68.61,31.8,24.8,100,40,2.24,RU,1604112947
188,Husavik,66.04,-17.34,42.8,75,75,18.34,IS,1604112947
189,Morón,-34.65,-58.62,59.0,98,0,4.99,AR,1604112935
190,Les Cayes,18.2,-73.75,79.12,75,100,4.21,HT,1604112947
191,Saint Paul Harbor,57.79,-152.41,33.8,59,90,8.05,US,1604112947
192,Wajima,37.4,136.9,59.0,54,40,9.17,JP,1604112374
193,Taksimo,56.34,114.88,23.27,89,100,1.86,RU,1604112947
194,Paracuru,-3.41,-39.03,80.01,75,20,21.0,BR,1604112947
195,Ciudad de Armería,18.93,-103.97,82.4,83,75,0.45,MX,1604112948
196,Mt. Pleasant,32.79,-79.86,64.0,72,1,4.7,US,1604112948
197,Longyearbyen,78.22,15.64,17.6,72,20,3.36,SJ,1604112948
198,Petropavlovsk-Kamchatskiy,53.05,158.65,41.0,75,75,8.95,RU,1604112948
199,Campbell River,50.02,-125.24,42.01,75,20,4.7,CA,1604112823
200,Quatre Cocos,-20.21,57.76,69.01,54,0,7.0,MU,1604112988
201,Yerbogachën,61.28,108.01,11.26,93,100,6.82,RU,1604112921
202,Port Shepstone,-30.74,30.45,62.76,91,100,10.27,ZA,1604112989
203,Progreso,21.28,-89.67,75.99,88,75,4.7,MX,1604112989
204,Cockburn Town,21.46,-71.14,83.57,80,100,19.15,TC,1604112989
205,Hīt,33.64,42.83,57.9,32,0,2.55,IQ,1604112989
206,Nartan,43.51,43.7,50.0,71,97,2.24,RU,1604112989
207,San Felipe,10.34,-68.74,74.17,92,70,1.72,VE,1604112705
208,Plettenberg Bay,-34.05,23.37,52.11,74,0,3.53,ZA,1604112989
209,Usinsk,65.99,57.53,32.02,97,100,9.95,RU,1604112990
210,Muros,42.78,-9.06,61.0,90,99,11.99,ES,1604112990
211,Najrān,17.49,44.13,59.0,30,0,1.61,SA,1604112990
212,Saint-Martin-de-Crau,43.64,4.81,48.2,93,20,4.7,FR,1604112990
213,Cidreira,-30.18,-50.21,63.23,69,76,9.71,BR,1604112990
214,Klaksvík,62.23,-6.59,48.2,81,9,16.11,FO,1604112990
215,Labuan,5.28,115.24,80.6,88,40,3.36,MY,1604112990
216,Ulladulla,-35.35,150.47,60.01,100,90,8.05,AU,1604112990
217,Talcahuano,-36.72,-73.12,57.2,82,0,5.82,CL,1604112990
218,Beyla,8.68,-8.63,67.68,75,10,0.29,GN,1604112990
219,Liberal,37.04,-100.92,50.0,76,1,12.75,US,1604112992
220,Salalah,17.02,54.09,73.4,40,0,3.36,OM,1604112992
221,Chililabombwe,-12.36,27.82,63.54,57,3,5.59,ZM,1604112992
222,Novy Urengoy,66.08,76.63,33.21,96,100,14.03,RU,1604112992
223,Sitka,57.05,-135.33,46.4,81,90,17.22,US,1604112992
224,Port Hardy,50.7,-127.42,48.2,100,20,5.82,CA,1604112992
225,Simpang Empat,4.95,100.63,87.8,74,20,5.82,MY,1604112992
226,Kanniyākumāri,8.08,77.57,81.64,72,96,3.91,IN,1604112992
227,Cherskiy,68.75,161.3,7.74,90,100,5.12,RU,1604112993
228,Buckeye,33.37,-112.58,73.0,27,100,2.89,US,1604112791
229,San Patricio,28.02,-97.52,63.0,93,1,5.66,US,1604112993
230,Carutapera,-1.2,-46.02,76.01,87,61,5.99,BR,1604112993
231,Graciano Sánchez,23.92,-99.28,57.2,44,5,6.93,MX,1604112993
232,Muisne,0.6,-80.03,75.34,82,100,5.08,EC,1604112993
233,Porto-Novo,6.5,2.6,80.6,88,40,5.82,BJ,1604112993
234,Martil,35.62,-5.28,64.4,88,100,1.12,MA,1604112994
235,Vestmanna,62.16,-7.17,48.2,81,21,16.11,FO,1604112994
236,Neuquén,-38.95,-68.06,68.0,30,0,5.82,AR,1604112994
237,Abhā,18.22,42.51,57.2,37,0,0.38,SA,1604112994
238,Marsá Maţrūḩ,31.35,27.25,71.6,64,75,8.05,EG,1604112847
239,Coquimbo,-29.95,-71.34,53.6,87,90,5.82,CL,1604112704
240,Santa María del Oro,25.93,-105.37,55.36,47,83,2.24,MX,1604112994
241,Aklavik,68.22,-135.01,3.2,84,98,3.36,CA,1604112994
242,Lokosovo,61.13,74.82,33.26,97,100,9.1,RU,1604112994
243,Bengkulu,-3.8,102.27,83.14,69,86,3.04,ID,1604112994
244,Skegness,53.14,0.34,57.99,91,100,7.0,GB,1604112995
245,General Roca,-39.03,-67.58,68.0,30,0,5.82,AR,1604112995
246,Ahipara,-35.17,173.17,66.67,88,46,14.16,NZ,1604112995
247,Kutum,14.2,24.67,70.39,29,16,11.32,SD,1604112995
248,Bethel,41.37,-73.41,32.0,96,1,3.6,US,1604112995
249,Esim,4.87,-2.24,76.98,89,16,4.12,GH,1604112995
250,Westport,41.14,-73.36,35.6,80,1,5.82,US,1604113035
251,Praia da Vitória,38.73,-27.07,69.8,94,40,10.47,PT,1604113036
252,Verāval,20.9,70.37,80.96,48,0,7.58,IN,1604113036
253,Iralaya,15.0,-83.23,80.08,86,100,7.11,HN,1604113036
254,Ust'-Omchug,61.15,149.63,23.97,95,100,3.85,RU,1604112814
255,Mezhdurechensk,53.69,88.06,33.8,92,100,9.98,RU,1604113036
256,Hienghène,-20.68,164.93,81.07,64,78,11.45,NC,1604113036
257,Verkhoyansk,67.54,133.38,-1.89,89,100,3.44,RU,1604113037
258,Garoowe,8.41,48.48,75.67,70,14,7.76,SO,1604113037
259,Talnakh,69.49,88.4,14.0,78,100,29.08,RU,1604113002
260,Beloha,-25.17,45.05,63.63,70,0,10.78,MG,1604113037
261,Omboué,-1.57,9.26,76.77,90,100,5.84,GA,1604113037
262,Taseyevo,57.22,94.9,18.95,92,14,3.87,RU,1604113037
263,Santa Cruz de la Sierra,-17.8,-63.17,75.2,41,40,11.41,BO,1604112754
264,Srednekolymsk,67.45,153.68,6.53,94,100,1.1,RU,1604113037
265,Nanortalik,60.14,-45.24,27.01,92,88,9.75,GL,1604113006
266,Niamey,13.51,2.11,80.6,22,0,3.36,NE,1604113038
267,Carnarvon,-24.87,113.63,77.0,65,79,13.33,AU,1604113038
268,Geraldton,-28.77,114.6,71.6,68,90,13.87,AU,1604113038
269,Batagay-Alyta,67.8,130.41,4.26,93,100,1.19,RU,1604113038
270,Fairbanks,64.84,-147.72,12.2,85,90,4.7,US,1604113038
271,Matagami,49.75,-77.63,14.0,92,1,5.82,CA,1604113038
272,Karpathos,35.51,27.21,68.0,72,88,8.05,GR,1604112877
273,Bereda,43.27,-7.54,55.99,100,59,7.16,ES,1604113039
274,Celestún,20.87,-90.4,76.77,79,76,12.84,MX,1604113039
275,Launceston,-41.45,147.17,69.01,59,40,17.22,AU,1604113039
276,Sooke,48.37,-123.73,50.0,81,21,5.82,CA,1604112858
277,Baykit,61.67,96.37,5.7,88,0,1.83,RU,1604113039
278,Constitución,-35.33,-72.42,57.52,70,0,7.2,CL,1604113000
279,Macao,22.2,113.55,75.2,73,40,16.11,MO,1604113039
280,Malartic,48.13,-78.13,12.2,78,5,2.24,CA,1604112991
281,Qeshm,26.96,56.27,68.0,77,0,6.93,IR,1604113040
282,Cabedelo,-6.98,-34.83,77.0,88,40,5.82,BR,1604113040
283,Hambantota,6.12,81.12,81.75,71,94,5.53,LK,1604113041
284,Wewak,-3.55,143.63,85.15,64,79,4.76,PG,1604113041
285,São Filipe,14.9,-24.5,81.0,60,100,16.37,CV,1604113041
286,Severnoye,56.35,78.36,33.46,97,99,8.3,RU,1604113041
287,Kungurtug,50.6,97.52,24.78,90,100,8.9,RU,1604112535
288,Polis,35.04,32.43,64.4,77,56,6.93,CY,1604113041
289,Aktau,43.65,51.2,42.8,45,0,13.42,KZ,1604113041
290,Hofn,64.25,-15.21,45.18,79,0,17.27,IS,1604113041
291,Isla Mujeres,21.23,-86.73,75.2,94,90,4.7,MX,1604113042
292,Xingyi,24.19,102.82,63.45,82,96,3.42,CN,1604113042
293,Krasnosel'kup,65.7,82.47,13.06,96,100,15.99,RU,1604113042
294,Aberdeen,57.14,-2.1,41.0,93,100,5.82,GB,1604113042
295,Sebina,-20.87,27.25,68.14,48,0,16.6,BW,1604113042
296,Río Gallegos,-51.62,-69.22,53.6,62,40,5.82,AR,1604113042
297,Kamakwie,9.5,-12.23,71.26,84,0,1.14,SL,1604113042
298,Dhangadhi,28.71,80.6,75.34,48,0,0.78,NP,1604113042
299,Luba,3.46,8.55,75.2,100,40,3.36,GQ,1604113043
300,Fuerte Olimpo,-21.04,-57.87,69.08,68,46,6.44,PY,1604113083
301,Ostrovnoy,68.05,39.51,33.53,91,87,17.92,RU,1604113083
302,Togur,58.36,82.83,27.28,98,100,3.33,RU,1604113083
303,Kaoma,-14.78,24.8,68.22,36,50,8.39,ZM,1604112812
304,Vaitape,-16.52,-151.75,79.65,76,6,16.28,PF,1604113016
305,Adrar,20.5,-10.07,79.92,17,52,9.37,MR,1604113083
306,Howard Springs,-12.5,131.05,93.0,55,20,10.29,AU,1604113083
307,Tazovsky,67.47,78.7,23.63,98,100,18.19,RU,1604113084
308,Saint Anthony,45.02,-93.22,39.2,60,1,8.05,US,1604113084
309,Brighton,50.83,-0.14,57.99,100,67,5.01,GB,1604112960
310,Aykhal,66.0,111.5,1.4,84,90,2.24,RU,1604113084
311,Miracema do Tocantins,-9.56,-48.4,76.3,88,100,1.28,BR,1604113084
312,Nuevo Progreso,23.17,-97.95,62.01,54,0,1.01,MX,1604113084
313,Yangambi,0.81,24.43,69.13,99,100,1.07,CD,1604113084
314,Khovd,48.01,91.64,32.52,74,8,1.81,MN,1604113084
315,Finschhafen,-6.6,147.87,85.1,66,56,7.58,PG,1604113084
316,Barroquinha,-3.02,-41.14,73.04,86,61,5.59,BR,1604113084
317,Medicine Hat,50.05,-110.67,48.99,57,75,5.82,CA,1604113084
318,Riyadh,24.69,46.72,59.0,54,0,2.33,SA,1604113084
319,Kyenjojo,0.63,30.62,59.31,87,63,0.54,UG,1604113084
320,Jesolo,45.53,12.64,46.99,100,0,5.82,IT,1604113084
321,Banagher,53.19,-7.99,57.99,91,100,15.01,IE,1604113085
322,San Miguel,13.48,-88.18,74.37,91,93,1.25,SV,1604113085
323,Kulhudhuffushi,6.62,73.07,81.99,67,0,3.89,MV,1604113085
324,Anchorage,61.22,-149.9,23.0,73,1,4.7,US,1604113085
325,Ilulissat,69.22,-51.1,19.4,73,96,2.24,GL,1604113085
326,Aripuanã,-9.17,-60.63,73.69,95,43,2.42,BR,1604113085
327,Port-Cartier,50.03,-66.87,30.2,63,0,8.05,CA,1604113085
328,Dolores,-36.31,-57.68,44.92,85,0,4.47,AR,1604113085
329,Buckie,57.68,-2.96,44.6,80,0,8.05,GB,1604113085
330,Tsimmerbude,54.67,20.13,46.4,93,75,4.47,RU,1604113085
331,Sozimskiy,59.74,52.25,35.15,94,100,9.55,RU,1604113085
332,Puerto Baquerizo Moreno,-0.9,-89.6,68.77,92,80,10.11,EC,1604113085
333,Astoria,46.19,-123.83,52.0,76,90,4.7,US,1604112966
334,Oussouye,12.48,-16.55,80.11,68,61,4.36,SN,1604113085
335,Lethem,3.38,-59.8,80.74,72,31,2.64,GY,1604113085
336,Paamiut,61.99,-49.67,26.67,86,72,19.42,GL,1604113086
337,Auki,-8.77,160.7,82.8,78,96,2.93,SB,1604113086
338,Bogorodskoye,56.55,37.88,40.86,87,100,1.36,RU,1604113086
339,Visnes,59.36,5.22,39.2,93,64,1.12,NO,1604113086
340,Finspång,58.71,15.77,39.2,100,81,3.36,SE,1604113086
341,Roald,62.58,6.13,46.4,81,81,10.29,NO,1604113062
342,Haines Junction,60.75,-137.51,17.6,72,100,1.12,CA,1604113086
343,Chadiza,-14.07,32.44,64.8,62,3,4.07,ZM,1604113086
344,Itumbiara,-18.42,-49.22,77.58,69,98,5.68,BR,1604113086
345,Mweka,-4.85,21.57,65.16,93,6,0.69,CD,1604113086
346,Yüksekova,37.57,44.29,48.2,39,20,4.7,TR,1604112909
347,Sur,22.57,59.53,76.98,58,0,10.63,OM,1604113046
348,Cabo San Lucas,22.89,-109.91,77.0,65,40,5.82,MX,1604113046
349,Kununurra,-15.77,128.73,98.6,30,94,5.82,AU,1604113087
350,Listvyanskiy,54.44,83.5,33.57,99,100,7.52,RU,1604113127
351,Bambous Virieux,-20.34,57.76,69.01,54,0,7.0,MU,1604113127
352,Gusevskiy,55.66,40.56,36.46,95,11,1.99,RU,1604113127
353,Opuwo,-18.06,13.84,65.98,60,4,2.57,NA,1604113127
354,Taltal,-25.4,-70.48,57.67,71,12,2.8,CL,1604113086
355,Saint-Pierre,-21.34,55.48,68.0,72,90,9.17,RE,1604113019
356,Salinópolis,-0.61,-47.36,79.2,82,78,11.68,BR,1604113127
357,Xihe,31.69,113.47,62.47,82,100,3.18,CN,1604113127
358,Lagoa,39.05,-27.98,68.13,95,100,20.56,PT,1604113128
359,Hong Kong,22.29,114.16,75.99,62,45,1.99,HK,1604112962
360,Harper,4.38,-7.72,77.31,90,94,8.43,LR,1604113128
361,Lebu,-37.62,-73.65,51.3,90,3,12.88,CL,1604113128
362,Jermuk,39.84,45.67,47.05,52,82,2.21,AM,1604113128
363,Behshahr,36.69,53.55,72.25,25,0,5.53,IR,1604113128
364,Pacific Grove,36.62,-121.92,55.4,87,1,3.36,US,1604112991
365,Ossora,59.24,163.07,34.83,82,81,1.41,RU,1604113098
366,Kiryat Gat,31.61,34.76,73.0,100,80,4.7,IL,1604113006
367,Yibin,28.77,104.62,64.02,76,100,3.15,CN,1604113128
368,Zhigansk,66.77,123.37,-9.33,88,97,0.74,RU,1604113128
369,Zyryanka,65.75,150.85,6.51,93,100,2.37,RU,1604113128
370,Maroantsetra,-15.43,49.73,69.96,80,96,8.79,MG,1604113129
371,Eureka,40.8,-124.16,51.01,85,0,4.32,US,1604113129
372,Bhitarwār,25.8,78.12,59.0,67,5,1.12,IN,1604113129
373,Urengoy,65.97,78.37,30.15,99,100,12.55,RU,1604113129
374,Teya,60.38,92.63,9.79,89,9,1.52,RU,1604113129
375,Ambam,2.38,11.28,68.83,98,80,0.72,CM,1604113129
376,Almenara,-16.18,-40.69,72.16,83,93,2.37,BR,1604113129
377,Singaparna,-7.35,108.11,84.38,61,69,2.66,ID,1604113129
378,Darbhanga,26.17,85.9,80.29,57,54,7.87,IN,1604113129
379,Biscarrosse,44.39,-1.17,46.4,100,90,2.24,FR,1604113130
380,Nouadhibou,20.93,-17.03,66.2,88,40,14.99,MR,1604113130
381,Tigil',57.8,158.67,38.35,75,67,6.96,RU,1604113130
382,Tettnang Castle,47.67,9.6,41.0,100,90,3.36,DE,1604113130
383,Salta,-24.79,-65.41,62.6,45,0,5.82,AR,1604112848
384,The Valley,18.22,-63.06,82.4,78,75,11.41,AI,1604113130
385,Aboisso,5.47,-3.21,74.86,94,4,2.71,CI,1604113130
386,Wukari,7.85,9.78,73.69,81,58,2.55,NG,1604113130
387,Tete,-16.16,33.59,78.8,50,20,5.99,MZ,1604113131
388,Yumen,40.28,97.2,44.17,52,100,19.22,CN,1604113131
389,Konza,-1.74,37.13,60.8,93,75,5.82,KE,1604113131
390,City of San Pedro,14.35,121.02,90.0,58,40,10.29,PH,1604113131
391,Meadow Lake,34.8,-106.54,53.6,50,75,4.7,US,1604113131
392,Sorong,-0.88,131.25,87.4,69,97,13.27,ID,1604113131
393,Kenora,49.82,-94.43,30.2,92,75,13.87,CA,1604113131
394,Duku,11.24,4.91,74.84,36,0,4.29,NG,1604113131
395,Sinnamary,5.38,-52.95,80.37,85,8,12.28,GF,1604113131
396,Laguna,38.42,-121.42,66.2,45,1,2.3,US,1604112914
397,Yangjiang,21.85,111.97,77.0,65,7,8.63,CN,1604113132
398,Rocha,-34.48,-54.33,44.44,90,64,1.19,UY,1604113051
399,Palmer,42.16,-72.33,27.0,100,1,1.52,US,1604113086
400,Price,39.6,-110.81,42.8,41,1,5.82,US,1604113163
401,Toba,34.48,136.85,60.01,58,0,3.0,JP,1604113172
402,Fare,-16.7,-151.02,79.61,72,0,15.1,PF,1604113048
403,Boa Vista,2.82,-60.67,80.6,69,40,2.24,BR,1604113172
404,Kitimat,54.05,-128.65,33.01,94,100,2.33,CA,1604113172
405,Jacksonville,30.33,-81.66,68.0,60,1,11.41,US,1604112965
406,Tubualá,9.52,-79.03,78.8,94,40,2.24,PA,1604113172
407,Anadyr,64.75,177.48,6.8,84,20,11.18,RU,1604113060
408,Tongren,27.72,109.19,57.56,85,100,1.92,CN,1604113158
409,Jaguaquara,-13.53,-39.97,65.19,98,79,4.16,BR,1604113172
410,Minas de Barroterán,27.63,-101.28,59.41,46,17,5.68,MX,1604113172
411,Northam,51.03,-4.22,57.0,90,100,14.0,GB,1604113172
412,Guaxupé,-21.31,-46.71,62.15,90,98,6.46,BR,1604113173
413,Jalu,29.03,21.55,60.24,73,17,9.06,LY,1604113173
414,Province of Groningen,53.25,6.75,57.99,100,90,10.29,NL,1604113019
415,Alofi,-19.06,-169.92,77.0,78,90,16.11,NU,1604113173
416,Morristown,36.21,-83.29,45.0,93,20,4.0,US,1604113173
417,Mutsu,41.29,141.22,60.01,50,20,9.17,JP,1604113173
418,Faya,18.39,42.45,57.2,37,0,0.54,SA,1604113173
419,Chinhoyi,-17.37,30.2,67.78,59,0,10.58,ZW,1604113173
420,Te Anau,-45.42,167.72,55.9,87,100,3.83,NZ,1604113173
421,Sioux Lookout,50.1,-91.92,30.2,80,75,5.82,CA,1604113173
422,Mahibadhoo,3.78,72.97,82.74,72,49,6.89,MV,1604113173
423,Kota Bharu,6.13,102.24,82.4,78,20,2.24,MY,1604113173
424,Carlsbad,33.16,-117.35,66.2,100,1,1.61,US,1604112980
425,Fairlie,55.76,-4.86,44.01,91,100,21.07,GB,1604113173
426,Dobryatino,55.51,41.32,37.2,96,23,2.39,RU,1604113173
427,Brenham,30.17,-96.4,53.01,81,1,5.32,US,1604113174
428,Maceió,-9.67,-35.74,75.2,94,75,4.7,BR,1604112985
429,Jiuquan,39.74,98.52,42.75,56,94,2.46,CN,1604113174
430,Cairns,-16.92,145.77,89.01,58,15,10.29,AU,1604112896
431,Kingisepp,59.37,28.61,40.75,95,0,2.04,RU,1604113174
432,Reconquista,-29.15,-59.65,54.79,76,19,6.38,AR,1604113174
433,Bam,29.11,58.36,59.11,29,0,5.28,IR,1604113174
434,Bilma,18.69,12.92,68.63,29,0,13.42,NE,1604113018
435,Sawākin,19.11,37.33,82.22,65,0,1.1,SD,1604113174
436,Grindavik,63.84,-22.43,41.0,86,75,21.92,IS,1604113174
437,Nome,64.5,-165.41,24.8,68,1,6.93,US,1604113174
438,Westonaria,-26.32,27.65,62.01,65,100,11.52,ZA,1604113174
439,Rio Grande,-32.03,-52.1,59.0,80,99,1.99,BR,1604113100
440,Odienné,9.51,-7.57,71.69,65,1,1.9,CI,1604113174
441,Belaya,49.03,25.77,46.0,87,100,1.01,UA,1604113174
442,Deputatsky,69.3,139.9,2.28,95,100,2.28,RU,1604113174
443,Sandwick,60.0,-1.25,48.2,76,100,11.41,GB,1604113175
444,Fomboni,-12.28,43.74,79.5,68,100,4.45,KM,1604113175
445,Álamo,20.92,-97.68,61.83,70,0,3.33,MX,1604113175
446,San Jose,37.34,-121.89,63.0,67,40,9.17,US,1604112941
447,Coruripe,-10.13,-36.18,76.37,87,98,12.35,BR,1604113175
448,Yangi Marg`ilon,40.43,71.72,39.2,35,0,6.93,UZ,1604113175
449,Belyy,55.84,32.94,41.94,95,94,2.64,RU,1604113175
450,Houma,29.6,-90.72,51.01,93,1,5.79,US,1604113053
451,Vardø,70.37,31.11,34.03,87,27,6.8,NO,1604113017
452,Ishigaki,24.34,124.16,78.8,61,20,16.11,JP,1604113215
453,Denpasar,-8.65,115.22,76.06,88,100,1.3,ID,1604113215
454,Inhambane,-23.86,35.38,74.44,74,95,13.22,MZ,1604113216
455,Pontes e Lacerda,-15.23,-59.34,69.78,69,100,3.04,BR,1604113216
456,Ettaiyapuram,9.14,77.99,84.2,74,40,3.36,IN,1604113216
457,Iqaluit,63.75,-68.51,15.8,78,90,8.05,CA,1604113037
458,Kautokeino,69.01,23.04,16.83,92,0,15.64,NO,1604113216
459,Nantucket,41.28,-70.1,42.01,60,90,17.22,US,1604113216
460,Sapouy,11.55,-1.77,75.13,32,0,2.1,BF,1604113026
461,Ketchikan,55.34,-131.65,44.6,75,90,5.82,US,1604113216
462,Ancud,-41.87,-73.82,53.01,76,0,8.05,CL,1604113216
463,Hualmay,-11.1,-77.61,62.65,84,100,5.35,PE,1604113217
464,Ojinaga,29.57,-104.42,64.4,36,1,8.05,MX,1604113217
465,Pinsk,52.12,26.1,43.14,81,86,3.2,BY,1604113217
466,Pontian Kecil,1.48,103.39,86.0,79,20,5.82,MY,1604113217
467,Mogadishu,2.04,45.34,79.29,81,81,11.61,SO,1604113217
468,Brantford,43.13,-80.27,30.99,70,17,6.35,CA,1604113191
469,Eagle Pass,28.71,-100.5,57.99,46,36,3.0,US,1604113217
470,Porto Nacional,-10.71,-48.42,78.8,94,75,3.36,BR,1604113217
471,Barcelos,41.54,-8.62,59.0,87,75,4.7,PT,1604113044
472,Kitakata,37.65,139.87,60.01,58,20,11.41,JP,1604113218
473,Santa Maria da Vitória,-13.39,-44.19,71.83,83,99,1.79,BR,1604113218
474,Padang,-0.95,100.35,78.8,83,40,9.17,ID,1604113219
475,Cayenne,4.93,-52.33,80.6,94,0,12.06,GF,1604113210
476,Port-Gentil,-0.72,8.78,78.94,86,100,12.64,GA,1604113024
477,Abapó,-18.83,-63.47,58.93,52,1,3.53,BO,1604113220
478,Kampala,0.32,32.58,66.2,88,75,9.17,UG,1604113143
479,Grottammare,42.99,13.86,52.0,100,1,4.7,IT,1604113220
480,Ambatolampy,-19.38,47.42,57.2,71,75,12.75,MG,1604113221
481,Rosarito,32.33,-117.03,66.0,82,1,2.89,MX,1604113221
482,San Quintín,30.48,-115.95,48.99,24,85,5.99,MX,1604113221
483,Los Llanos de Aridane,28.66,-17.92,69.8,68,0,4.7,ES,1604113221
484,Gualeguay,-33.14,-59.31,48.63,90,23,7.07,AR,1604113221
485,Santa Fe,-31.63,-60.7,57.0,74,0,6.38,AR,1604113155
486,Hobyo,5.35,48.53,80.49,78,88,8.21,SO,1604113221
487,Atherton,53.52,-2.49,57.0,88,100,5.01,GB,1604113221
488,Fortuna,40.6,-124.16,53.6,87,1,5.82,US,1604113081
489,Kudat,6.88,116.85,77.0,94,40,4.7,MY,1604113222
490,Sembakung,3.82,117.25,86.04,74,93,3.94,ID,1604113222
491,Noumea,-22.28,166.46,91.4,43,0,6.93,NC,1604113118
492,Paralímni,35.04,33.98,69.01,77,0,5.82,CY,1604113222
493,Mazagão,-0.12,-51.29,82.4,78,20,9.17,BR,1604113223
494,Port Augusta,-32.5,137.77,62.6,72,90,14.99,AU,1604113224
495,Strezhevoy,60.73,77.59,33.8,100,90,8.95,RU,1604113224
496,Vilhena,-12.74,-60.15,69.31,88,100,3.51,BR,1604113224
497,Oktyabr'skiy,54.48,53.47,37.76,77,99,6.29,RU,1604113225
498,Huron,41.15,-82.55,37.99,75,6,3.67,US,1604113225
499,Kibaya,-5.3,36.57,59.05,82,98,6.17,TZ,1604113225
500,Villarrica,-25.75,-56.43,64.6,60,0,9.6,PY,1604113265
501,Mondlo,-27.98,30.72,57.34,85,89,5.61,ZA,1604113265
502,Wisconsin Rapids,44.38,-89.82,28.99,79,1,4.7,US,1604113265
503,Santa Cruz de La Palma,28.68,-17.76,69.8,68,0,4.7,ES,1604113265
504,Bharatpur,27.22,77.48,55.4,87,5,5.3,IN,1604113225
505,Yuancheng,36.65,107.79,46.53,49,43,12.15,CN,1604113265
506,Hay River,60.82,-115.8,21.2,79,100,3.36,CA,1604113001
507,Kieta,-6.22,155.63,83.39,76,63,6.87,PG,1604113265
508,El Tigre,8.89,-64.25,77.41,81,100,12.53,VE,1604112987
509,Port Said,31.26,32.28,75.2,78,40,13.87,EG,1604113266
510,San Cristobal,7.77,-72.22,68.07,91,98,1.74,VE,1604113266
511,Xenia,39.68,-83.93,41.0,83,90,3.31,US,1604113266
512,Ponnampet,12.15,75.93,75.2,94,40,3.36,IN,1604113266
513,Kūstī,13.16,32.66,81.09,59,100,10.51,SD,1604113266
514,Bulgan,48.81,103.53,31.35,74,35,16.46,MN,1604113096
515,Proletariy,58.43,31.7,46.06,90,94,5.91,RU,1604113266
516,Portland,45.52,-122.68,53.01,78,10,5.61,US,1604113162
517,Visconde do Rio Branco,-21.01,-42.84,68.0,99,100,5.01,BR,1604113266
518,Xincheng,33.63,115.18,65.07,67,91,6.51,CN,1604113267
519,Champerico,14.3,-91.92,66.0,95,22,0.6,GT,1604113267
520,Ust-Kuyga,70.02,135.6,4.06,93,100,3.06,RU,1604113267
521,Stornoway,58.21,-6.39,50.0,76,100,18.34,GB,1604113267
522,Tīkri,29.23,77.35,68.95,28,0,5.7,IN,1604113267
523,Lockport,41.59,-88.06,33.8,79,1,4.7,US,1604113267
524,Pāsighāt,28.07,95.33,82.99,39,11,1.7,IN,1604113267
525,Alice,27.75,-98.07,57.2,66,1,6.93,US,1604113267
526,Sisak,45.47,16.38,52.0,93,23,1.12,HR,1604113267
527,Mtambile,-5.38,39.7,77.5,82,95,9.42,TZ,1604113267
528,Surin,14.88,103.49,86.0,73,8,4.18,TH,1604113194
529,Mossamedes,-15.2,12.15,72.63,81,74,6.89,AO,1604113267
530,Mackay,-21.15,149.2,89.01,55,0,17.22,AU,1604113267
531,Chicama,-7.84,-79.15,63.45,82,100,6.8,PE,1604113268
532,Xichang,27.9,102.26,66.92,70,99,4.21,CN,1604113268
533,Pitimbu,-7.47,-34.81,77.0,88,40,5.82,BR,1604113268
534,Shingū,33.73,135.98,64.4,42,20,3.36,JP,1604113268
535,Marrakesh,31.63,-8.01,66.2,37,0,4.7,MA,1604113268
536,Alta Floresta,-9.88,-56.09,72.46,91,100,3.11,BR,1604113193
537,Shelopugino,51.65,117.56,26.04,95,100,11.32,RU,1604113268
538,Morondava,-20.28,44.28,75.22,49,0,11.56,MG,1604113268
539,Leander,30.58,-97.85,54.0,50,1,5.82,US,1604112988
540,Sijunjung,-0.69,100.95,87.37,58,81,1.3,ID,1604113268
541,São João da Barra,-21.64,-41.05,72.55,96,100,1.19,BR,1604113268
542,Kaminskiy,57.15,41.47,38.03,90,73,2.44,RU,1604113269
543,Springbok,-29.66,17.89,51.17,46,0,8.12,ZA,1604113269
544,Ugoofaaru,5.67,73.0,82.31,71,19,5.44,MV,1604113269
545,Hof,50.32,11.92,50.0,98,97,13.0,DE,1604113269
546,Havre-St-Pierre,50.23,-63.6,21.2,73,1,4.7,CA,1604113269
547,Pandan Niog,6.23,120.56,81.88,80,99,11.14,PH,1604113269
548,La Macarena,2.18,-73.78,76.15,81,31,2.66,CO,1604113269
549,Bayan,46.08,127.4,51.01,37,100,20.65,CN,1604113269
550,Peleduy,59.63,112.74,16.36,94,98,4.0,RU,1604113309
551,Shimoda,34.67,138.95,62.6,45,20,19.46,JP,1604113309
552,Akdepe,42.06,59.38,33.8,55,0,9.17,TM,1604113309
553,Ponta Delgada,37.73,-25.67,69.8,94,75,13.87,PT,1604113309
554,Spresiano,45.78,12.26,48.2,100,1,2.24,IT,1604113309
555,Sechura,-5.56,-80.82,64.58,81,99,12.48,PE,1604113309
556,Antofagasta,-23.65,-70.4,59.0,77,90,10.29,CL,1604113066
557,Mitsamiouli,-11.38,43.28,78.04,79,91,9.31,KM,1604113310
558,Coyhaique,-45.58,-72.07,53.6,62,0,1.12,CL,1604113310
559,Segezha,63.74,34.32,30.76,97,0,5.35,RU,1604113310
560,Port Macquarie,-31.43,152.92,84.0,54,12,4.0,AU,1604113310
561,Storforshei,66.4,14.52,31.37,94,100,3.24,NO,1604113310
562,Las Vegas,36.17,-115.14,73.4,13,1,2.17,US,1604113210
563,Port Hedland,-20.32,118.57,95.0,26,0,6.93,AU,1604113310
564,Marawi,8.0,124.29,82.99,78,70,5.01,PH,1604113310
565,Melfi,41.0,15.65,43.0,99,8,3.58,IT,1604113310
566,Atar,20.52,-13.05,81.95,17,70,7.7,MR,1604113310
567,Waddān,29.16,16.14,57.52,86,1,6.06,LY,1604113310
568,Casisang,8.14,125.12,82.99,78,100,5.01,PH,1604113310
569,Flinders,-34.58,150.86,63.0,85,48,5.01,AU,1604113310
570,Münster,51.96,7.63,55.99,100,75,9.17,DE,1604113200
571,Navoiy,40.08,65.38,35.6,59,0,11.41,UZ,1604113311
572,Vila Velha,-20.33,-40.29,75.2,94,90,5.82,BR,1604113220
573,Micheweni,-4.97,39.83,76.89,85,62,9.33,TZ,1604113311
574,Mattawa,46.74,-119.9,50.0,43,1,5.82,US,1604113311
575,Kichera,55.94,110.1,24.49,87,100,3.13,RU,1604113311
576,Warwick,41.7,-71.42,32.0,92,1,4.7,US,1604113311
577,Beauceville,46.22,-70.78,23.0,85,19,1.34,CA,1604113311
578,Ylivieska,64.08,24.55,26.01,95,0,4.0,FI,1604113311
